[
  {
    "Type":"Botany",
		"Class":"B",
    "Name":"Wonders Don't Cease, They're Discontinued",
    "NPC":"K'leytai",
    "Zone":"Mor Dhona",
    "Region":"Saint Coinach's Find",
    "coordinates":"(29,12)",
    "Level":45
	},
  {
    "Type":"Botany",
		"Class":"B",
    "Name":"West Bank Story",
    "NPC":"Tierney",
    "Zone":"Central Shroud",
    "Region":"Bentbranch Meadows",
    "coordinates":"(22,22)",
    "Level":10
	},
  {
		"Type":"Botany",
		"Class":"B",
    "Name":"We Couldn't Start the Fire",
    "NPC":"Muriaule",
    "Zone":"Central Shroud",
    "Region":"The Bannock",
    "coordinates":"(23,19)",
    "Level":1
	},
  {
		"Type":"Botany",
		"Class":"B",
    "Name":"Waking Wood",
    "NPC":"Muriaule",
    "Zone":"Central Shroud",
    "Region":"The Bannock",
    "coordinates":"(23,19)",
    "Level":1
	},
  {
	  "Type":"Botany",
		"Class":"B",
    "Name":"Topsy-turvy Time",
    "NPC":"K'leytai",
    "Zone":"Mor Dhona",
    "Region":"Saint Coinach's Find",
    "coordinates":"(29,12)",
    "Level":45
	},
  {
		"Type":"Botany",
		"Class":"B",
    "Name":"This Old Fort",
    "NPC":"Voilinaut",
    "Zone":"Coerthas Central Highlands",
    "Region":"Whitebrim Front",
    "coordinates":"(12,16)",
    "Level":40
	},
  {
		"Type":"Botany",
		"Class":"B",
    "Name":"The Quick and the Dead",
    "NPC":"Qina Lyehga",
    "Zone":"East Shroud",
    "Region":"The Hawthorne Hut",
    "coordinates":"(17,27)",
    "Level":15
	},
  {
		"Type":"Botany",
		"Class":"B",
    "Name":"The Palm in Your Hand",
    "NPC":"Nahctahr",
    "Zone":"Eastern La Noscea",
    "Region":"Costa del Sol",
    "coordinates":"(30,30)",
    "Level":30
	},
  {
		"Type":"Botany",
		"Class":"B",
    "Name":"The Heart of the Hedge",
    "NPC":"Tierney",
    "Zone":"Central Shroud",
    "Region":"Bentbranch Meadows",
    "coordinates":"(22,22)",
    "Level":10
	},
  {
		"Type":"Botany",
		"Class":"B",
    "Name":"Straight and Arrow",
    "NPC":"Voilinaut",
    "Zone":"Coerthas Central Highlands",
    "Region":"Whitebrim Front",
    "coordinates":"(12,16)",
    "Level":40
	},
  {
		"Type":"Botany",
		"Class":"B",
    "Name":"Spear of Heaven",
    "NPC":"Cimeaurant",
    "Zone":"Coerthas Central Highlands",
    "Region":"First Dicasterial Observatorium of Aetherial and Astrological Phenomena",
    "coordinates":"(26,28)",
    "Level":35
	},
  {
		"Type":"Botany",
		"Class":"B",
    "Name":"Sign of the Crimes",
    "NPC":"Voilinaut",
    "Zone":"Coerthas Central Highlands",
    "Region":"Whitebrim Front",
    "coordinates":"(12,16)",
    "Level":40
	},
  {
		"Type":"Botany",
		"Class":"B",
    "Name":"Shaken, Not Stirred",
    "NPC":"Nyell",
    "Zone":"South Shroud",
    "Region":"Quarrymill",
    "coordinates":"(25,20)",
    "Level":20
	},
  {
		"Type":"Botany",
		"Class":"B",
    "Name":"See How They Shine",
    "NPC":"K'leytai",
    "Zone":"Mor Dhona",
    "Region":"Saint Coinach's Find",
    "coordinates":"(29,12)",
    "Level":45
	},
  {
		"Type":"Botany",
		"Class":"B",
    "Name":"Salad Days",
    "NPC":"Cimeaurant",
    "Zone":"Coerthas Central Highlands",
    "Region":"First Dicasterial Observatorium of Aetherial and Astrological Phenomena",
    "coordinates":"(26,28)",
    "Level":35
	},
  {
		"Type":"Botany",
		"Class":"B",
    "Name":"Plague on Both Our Forests",
    "NPC":"Voilinaut",
    "Zone":"Coerthas Central Highlands",
    "Region":"Whitebrim Front",
    "coordinates":"(12,16)",
    "Level":40
	},
  {
		"Type":"Botany",
		"Class":"B",
    "Name":"Over the Underbrush",
    "NPC":"Nyell",
    "Zone":"South Shroud",
    "Region":"Quarrymill",
    "coordinates":"(25,20)",
    "Level":25
	},
  {
		"Type":"Botany",
		"Class":"B",
    "Name":"Nowhere to Slide",
    "NPC":"Nyell",
    "Zone":"South Shroud",
    "Region":"Quarrymill",
    "coordinates":"(25,20)",
    "Level":20
	},
  {
		"Type":"Botany",
		"Class":"B",
    "Name":"No Bark, All Bite",
    "NPC":"Muriaule",
    "Zone":"Central Shroud",
    "Region":"The Bannock",
    "coordinates":"(23,19)",
    "Level":5
	},
  {
		"Type":"Botany",
		"Class":"B",
    "Name":"Never Strikes Twice",
    "NPC":"Qina Lyehga",
    "Zone":"East Shroud",
    "Region":"The Hawthorne Hut",
    "coordinates":"(17,27)",
    "Level":15
	},
  {
		"Type":"Botany",
		"Class":"B",
    "Name":"Nature Calls",
    "NPC":"Nahctahr",
    "Zone":"Eastern La Noscea",
    "Region":"Costa del Sol",
    "coordinates":"(30,30)",
    "Level":30
	},
  {
		"Type":"Botany",
		"Class":"B",
    "Name":"Mushroom Gobblin'",
    "NPC":"Nyell",
    "Zone":"South Shroud",
    "Region":"Quarrymill",
    "coordinates":"(25,20)",
    "Level":25
	},
  {
		"Type":"Botany",
		"Class":"B",
    "Name":"Moon in Rouge",
    "NPC":"Nyell",
    "Zone":"South Shroud",
    "Region":"Quarrymill",
    "coordinates":"(25,20)",
    "Level":25
	},
  {
		"Type":"Botany",
		"Class":"B",
    "Name":"Maple Stories",
    "NPC":"Qina Lyehga",
    "Zone":"East Shroud",
    "Region":"The Hawthorne Hut",
    "coordinates":"(17,27)",
    "Level":15
	},
  {
		"Type":"Botany",
		"Class":"B",
    "Name":"Lovely Latex",
    "NPC":"Muriaule",
    "Zone":"Central Shroud",
    "Region":"The Bannock",
    "coordinates":"(23,19)",
    "Level":1
	},
  {
		"Type":"Botany",
		"Class":"B",
    "Name":"Let the Sun Shine In",
    "NPC":"Muriaule",
    "Zone":"Central Shroud",
    "Region":"The Bannock",
    "coordinates":"(23,19)",
    "Level":5
	},
  {
		"Type":"Botany",
		"Class":"B",
    "Name":"Just the Artifacts, Madam",
    "NPC":"Nyell",
    "Zone":"South Shroud",
    "Region":"Quarrymill",
    "coordinates":"(25,20)",
    "Level":20
	},
  {
		"Type":"Botany",
		"Class":"B",
    "Name":"If a Tree Falls",
    "NPC":"Muriaule",
    "Zone":"Central Shroud",
    "Region":"The Bannock",
    "coordinates":"(23,19)",
    "Level":5
	},
  {
		"Type":"Botany",
		"Class":"B",
    "Name":"Fueling the Flames",
    "NPC":"Nyell",
    "Zone":"South Shroud",
    "Region":"Quarrymill",
    "coordinates":"(25,20)",
    "Level":20
	},
  {
		"Type":"Botany",
		"Class":"B",
    "Name":"Evil Seeds",
    "NPC":"Muriaule",
    "Zone":"Central Shroud",
    "Region":"The Bannock",
    "coordinates":"(23,19)",
    "Level":5
	},
  {
		"Type":"Botany",
		"Class":"B",
    "Name":"East Bank Story",
    "NPC":"Muriaule",
    "Zone":"Central Shroud",
    "Region":"The Bannock",
    "coordinates":"(23,19)",
    "Level":1
	},
  {
		"Type":"Botany",
		"Class":"B",
    "Name":"Digging Deep",
    "NPC":"Tierney",
    "Zone":"Central Shroud",
    "Region":"Bentbranch Meadows",
    "coordinates":"(22,22)",
    "Level":10
	},
  {
		"Type":"Botany",
		"Class":"B",
    "Name":"Caught in the Long Grass",
    "NPC":"K'leytai",
    "Zone":"Mor Dhona",
    "Region":"Saint Coinach's Find",
    "coordinates":"(29,12)",
    "Level":45
	},
  {
		"Type":"Botany",
		"Class":"B",
    "Name":"Catch My Drift",
    "NPC":"Cimeaurant",
    "Zone":"Coerthas Central Highlands",
    "Region":"First Dicasterial Observatorium of Aetherial and Astrological Phenomena",
    "coordinates":"(26,28)",
    "Level":35
	},
  {
		"Type":"Botany",
		"Class":"B",
    "Name":"Briar in the Hole",
    "NPC":"Qina Lyehga",
    "Zone":"East Shroud",
    "Region":"The Hawthorne Hut",
    "coordinates":"(17,27)",
    "Level":15
	},
  {
		"Type":"Botany",
		"Class":"B",
    "Name":"Bleeding Them Dry",
    "NPC":"Nahctahr",
    "Zone":"Eastern La Noscea",
    "Region":"Costa del Sol",
    "coordinates":"(30,30)",
    "Level":30
	},
  {
		"Type":"Botany",
		"Class":"B",
    "Name":"Appleanche",
    "NPC":"Nyell",
    "Zone":"South Shroud",
    "Region":"Quarrymill",
    "coordinates":"(25,20)",
    "Level":25
	},
  {
		"Type":"Botany",
		"Class":"B",
    "Name":"Always Right",
    "NPC":"Nahctahr",
    "Zone":"Eastern La Noscea",
    "Region":"Costa del Sol",
    "coordinates":"(30,30)",
    "Level":30
	},
  {
		"Type":"Botany",
		"Class":"B",
    "Name":"A Stash of Herbs",
    "NPC":"Cimeaurant",
    "Zone":"Coerthas Central Highlands",
    "Region":"First Dicasterial Observatorium of Aetherial and Astrological Phenomena",
    "coordinates":"(26,28)",
    "Level":35
	},
  {
		"Type":"Botany",
		"Class":"B",
    "Name":"A Chest of Nuts",
    "NPC":"Tierney",
    "Zone":"Central Shroud",
    "Region":"Bentbranch Meadows",
    "coordinates":"(22,22)",
    "Level":10
	},
  {
		"Type":"Mining",
		"Class":"M",
    "Name":"Rubble Bubble",
    "NPC":"Graceful Song",
    "Zone":"Western Thanalan",
    "Region":"Scorpion Crossing",
    "coordinates":"(26,24)",
    "Level":1
	},
  {
		"Type":"Mining",
		"Class":"M",
    "Name":"Miners' Holiday",
    "NPC":"Graceful Song",
    "Zone":"Western Thanalan",
    "Region":"Scorpion Crossing",
    "coordinates":"(26,24)",
    "Level":1
	},
  {
		"Type":"Mining",
		"Class":"M",
    "Name":"Who Needs the Paperwork",
    "NPC":"Graceful Song",
    "Zone":"Western Thanalan",
    "Region":"Scorpion Crossing",
    "coordinates":"(26,24)",
    "Level":1
	},
  {
		"Type":"Mining",
		"Class":"M",
    "Name":"The Primrose Path",
    "NPC":"Graceful Song",
    "Zone":"Western Thanalan",
    "Region":"Scorpion Crossing",
    "coordinates":"(26,24)",
    "Level":1
	},
  {
		"Type":"Mining",
		"Class":"M",
    "Name":"I Don't Zinc It's a Coincidence",
    "NPC":"Graceful Song",
    "Zone":"Western Thanalan",
    "Region":"Scorpion Crossing",
    "coordinates":"(26,24)",
    "Level":5
	},
  {
		"Type":"Mining",
		"Class":"M",
    "Name":"Pipikkuli's Ship Comes In",
    "NPC":"Graceful Song",
    "Zone":"Western Thanalan",
    "Region":"Scorpion Crossing",
    "coordinates":"(26,24)",
    "Level":5
	},
  {
		"Type":"Mining",
		"Class":"M",
    "Name":"Do They Ore Don't They",
    "NPC":"Graceful Song",
    "Zone":"Western Thanalan",
    "Region":"Scorpion Crossing",
    "coordinates":"(26,24)",
    "Level":5
	},
  {
		"Type":"Mining",
		"Class":"M",
    "Name":"Vanishing Point",
    "NPC":"Graceful Song",
    "Zone":"Western Thanalan",
    "Region":"Scorpion Crossing",
    "coordinates":"(26,24)",
    "Level":5
	},
  {
		"Type":"Mining",
		"Class":"M",
    "Name":"We Do This the Hard Way",
    "NPC":"Totonowa",
    "Zone":"Western Thanalan",
    "Region":"Horizon",
    "coordinates":"(23,16)",
    "Level":10
	},
  {
		"Type":"Mining",
		"Class":"M",
    "Name":"Break It Up",
    "NPC":"Totonowa",
    "Zone":"Western Thanalan",
    "Region":"Horizon",
    "coordinates":"(23,16)",
    "Level":10
	},
  {
		"Type":"Mining",
		"Class":"M",
    "Name":"It Peiste to Listen",
    "NPC":"Totonowa",
    "Zone":"Western Thanalan",
    "Region":"Horizon",
    "coordinates":"(23,16)",
    "Level":10
	},
  {
		"Type":"Mining",
		"Class":"M",
    "Name":"That's Why They Call It Fool's Gold",
    "NPC":"Totonowa",
    "Zone":"Western Thanalan",
    "Region":"Horizon",
    "coordinates":"(23,16)",
    "Level":10
	},
  {
		"Type":"Mining",
		"Class":"M",
    "Name":"A Man's Gotta Dream",
    "NPC":"Poponagu",
    "Zone":"Eastern Thanalan",
    "Region":"Camp Drybone",
    "coordinates":"(13,24)",
    "Level":15
	},
  {
		"Type":"Mining",
		"Class":"M",
    "Name":"Earth Sprites Are Easy",
    "NPC":"Poponagu",
    "Zone":"Eastern Thanalan",
    "Region":"Camp Drybone",
    "coordinates":"(13,24)",
    "Level":15
	},
  {
		"Type":"Mining",
		"Class":"M",
    "Name":"The Doom That Came to Belah'dia",
    "NPC":"Poponagu",
    "Zone":"Eastern Thanalan",
    "Region":"Camp Drybone",
    "coordinates":"(13,24)",
    "Level":15
	},
  {
		"Type":"Mining",
		"Class":"M",
    "Name":"Eiderdown for Eidolons",
    "NPC":"Poponagu",
    "Zone":"Eastern Thanalan",
    "Region":"Camp Drybone",
    "coordinates":"(13,24)",
    "Level":15
	},
  {
		"Type":"Mining",
		"Class":"M",
    "Name":"Rock My Wall",
    "NPC":"Nyell",
    "Zone":"South Shroud",
    "Region":"Quarrymill",
    "coordinates":"(25,20)",
    "Level":20
	},
  {
		"Type":"Mining",
		"Class":"M",
    "Name":"Look How They Shine for You",
    "NPC":"Nyell",
    "Zone":"South Shroud",
    "Region":"Quarrymill",
    "coordinates":"(25,20)",
    "Level":20
	},
  {
		"Type":"Mining",
		"Class":"M",
    "Name":"Location, Location, Location",
    "NPC":"Nyell",
    "Zone":"South Shroud",
    "Region":"Quarrymill",
    "coordinates":"(25,20)",
    "Level":20
	},
  {
		"Type":"Mining",
		"Class":"M",
    "Name":"Elemental Housekeeping",
    "NPC":"Nyell",
    "Zone":"South Shroud",
    "Region":"Quarrymill",
    "coordinates":"(25,20)",
    "Level":20
	},
  {
		"Type":"Mining",
		"Class":"M",
    "Name":"Can't Start a Fire",
    "NPC":"Nyell",
    "Zone":"South Shroud",
    "Region":"Quarrymill",
    "coordinates":"(25,20)",
    "Level":25
	},
  {
		"Type":"Mining",
		"Class":"M",
    "Name":"Tag, You're It",
    "NPC":"Nyell",
    "Zone":"South Shroud",
    "Region":"Quarrymill",
    "coordinates":"(25,20)",
    "Level":25
	},
  {
		"Type":"Mining",
		"Class":"M",
    "Name":"Baby, Light My Way",
    "NPC":"Nyell",
    "Zone":"South Shroud",
    "Region":"Quarrymill",
    "coordinates":"(25,20)",
    "Level":25
	},
  {
		"Type":"Mining",
		"Class":"M",
    "Name":"Fool Me Twice",
    "NPC":"Nyell",
    "Zone":"South Shroud",
    "Region":"Quarrymill",
    "coordinates":"(25,20)",
    "Level":25
	},
  {
		"Type":"Mining",
		"Class":"M",
    "Name":"I Kidd You Not",
    "NPC":"Nahctahr",
    "Zone":"Eastern La Noscea",
    "Region":"Costa del Sol",
    "coordinates":"(30,30)",
    "Level":30
	},
  {
		"Type":"Mining",
		"Class":"M",
    "Name":"That's What the Money Is For",
    "NPC":"Nahctahr",
    "Zone":"Eastern La Noscea",
    "Region":"Costa del Sol",
    "coordinates":"(30,30)",
    "Level":30
	},
  {
		"Type":"Mining",
		"Class":"M",
    "Name":"The Midden Fair",
    "NPC":"Nahctahr",
    "Zone":"Eastern La Noscea",
    "Region":"Costa del Sol",
    "coordinates":"(30,30)",
    "Level":30
	},
  {
		"Type":"Mining",
		"Class":"M",
    "Name":"Shell Game (Miner)",
    "NPC":"Nahctahr",
    "Zone":"Eastern La Noscea",
    "Region":"Costa del Sol",
    "coordinates":"(30,30)",
    "Level":30
	},
  {
		"Type":"Mining",
		"Class":"M",
    "Name":"There Are No Good Answers",
    "NPC":"Cimeaurant",
    "Zone":"Coerthas Central Highlands",
    "Region":"First Dicasterial Observatorium of Aetherial and Astrological Phenomena",
    "coordinates":"(26,28)",
    "Level":35
	},
  {
		"Type":"Mining",
		"Class":"M",
    "Name":"Rocks for Brains",
    "NPC":"Cimeaurant",
    "Zone":"Coerthas Central Highlands",
    "Region":"First Dicasterial Observatorium of Aetherial and Astrological Phenomena",
    "coordinates":"(26,28)",
    "Level":35
	},
  {
		"Type":"Mining",
		"Class":"M",
    "Name":"Mythril Madness",
    "NPC":"Cimeaurant",
    "Zone":"Coerthas Central Highlands",
    "Region":"First Dicasterial Observatorium of Aetherial and Astrological Phenomena",
    "coordinates":"(26,28)",
    "Level":35
	},
  {
		"Type":"Mining",
		"Class":"M",
    "Name":"Eye for an Eye (Name)",
    "NPC":"Cimeaurant",
    "Zone":"Coerthas Central Highlands",
    "Region":"First Dicasterial Observatorium of Aetherial and Astrological Phenomena",
    "coordinates":"(26,28)",
    "Level":35
	},
  {
		"Type":"Mining",
		"Class":"M",
    "Name":"Nature Is a Monster",
    "NPC":"Voilinaut",
    "Zone":"Coerthas Central Highlands",
    "Region":"Whitebrim Front",
    "coordinates":"(12,16)",
    "Level":40
	},
  {
		"Type":"Mining",
		"Class":"M",
    "Name":"Brother in Arms",
    "NPC":"Voilinaut",
    "Zone":"Coerthas Central Highlands",
    "Region":"Whitebrim Front",
    "coordinates":"(12,16)",
    "Level":40
	},
  {
		"Type":"Mining",
		"Class":"M",
    "Name":"Not Losing Our Heads This Time",
    "NPC":"Voilinaut",
    "Zone":"Coerthas Central Highlands",
    "Region":"Whitebrim Front",
    "coordinates":"(12,16)",
    "Level":40
	},
  {
		"Type":"Mining",
		"Class":"M",
    "Name":"Breach and Build",
    "NPC":"Voilinaut",
    "Zone":"Coerthas Central Highlands",
    "Region":"Whitebrim Front",
    "coordinates":"(12,16)",
    "Level":40
	},
  {
		"Type":"Mining",
		"Class":"M",
    "Name":"Metal Has No Master",
    "NPC":"K'leytai",
    "Zone":"Mor Dhona",
    "Region":"Saint Coinach's Find",
    "coordinates":"(29,12)",
    "Level":45
	},
  {
		"Type":"Mining",
		"Class":"M",
    "Name":"Crystal Mess",
    "NPC":"K'leytai",
    "Zone":"Mor Dhona",
    "Region":"Saint Coinach's Find",
    "coordinates":"(29,12)",
    "Level":45
	},
  {
		"Type":"Mining",
		"Class":"M",
    "Name":"Hybrid Hypotheses",
    "NPC":"K'leytai",
    "Zone":"Mor Dhona",
    "Region":"Saint Coinach's Find",
    "coordinates":"(29,12)",
    "Level":45
	},
  {
		"Type":"Mining",
		"Class":"M",
    "Name":"Sucker Seer",
    "NPC":"K'leytai",
    "Zone":"Mor Dhona",
    "Region":"Saint Coinach's Find",
    "coordinates":"(29,12)",
    "Level":45
	},
  {
		"Type":"Fishing",
		"Class":"F",
    "Name":"Adventurers' Relish",
    "NPC":"Wyrkholsk",
    "Zone":"Lower La Noscea",
    "Region":"Limsa Lominsa",
    "coordinates":"(31,20)",
    "Level":1
	},
  {
		"Type":"Fishing",
		"Class":"F",
    "Name":"Soup to Guts",
    "NPC":"Wyrkholsk",
    "Zone":"Lower La Noscea",
    "Region":"Limsa Lominsa",
    "coordinates":"(31,20)",
    "Level":1
	},
  {
		"Type":"Fishing",
		"Class":"F",
    "Name":"A Kelping Hand",
    "NPC":"Wyrkholsk",
    "Zone":"Lower La Noscea",
    "Region":"Limsa Lominsa",
    "coordinates":"(31,20)",
    "Level":1
	},
  {
		"Type":"Fishing",
		"Class":"F",
    "Name":"Poor Boys Eat Well",
    "NPC":"Wyrkholsk",
    "Zone":"Lower La Noscea",
    "Region":"Limsa Lominsa",
    "coordinates":"(31,20)",
    "Level":1
	},
  {
		"Type":"Fishing",
		"Class":"F",
    "Name":"Splendor in the Glass",
    "NPC":"Wyrkholsk",
    "Zone":"Lower La Noscea",
    "Region":"Limsa Lominsa",
    "coordinates":"(31,20)",
    "Level":5
	},
  {
		"Type":"Fishing",
		"Class":"F",
    "Name":"Cloud Cutlet",
    "NPC":"Wyrkholsk",
    "Zone":"Lower La Noscea",
    "Region":"Limsa Lominsa",
    "coordinates":"(31,20)",
    "Level":5
	},
  {
		"Type":"Fishing",
		"Class":"F",
    "Name":"They Taste Just as Pretty",
    "NPC":"Wyrkholsk",
    "Zone":"Lower La Noscea",
    "Region":"Limsa Lominsa",
    "coordinates":"(31,20)",
    "Level":5
	},
  {
		"Type":"Fishing",
		"Class":"F",
    "Name":"Yummy in the Tummy",
    "NPC":"Wyrkholsk",
    "Zone":"Lower La Noscea",
    "Region":"Limsa Lominsa",
    "coordinates":"(31,20)",
    "Level":5
	},
  {
		"Type":"Fishing",
		"Class":"F",
    "Name":"Fish by Many Other Names",
    "NPC":"Swygskyf",
    "Zone":"Western La Noscea",
    "Region":"Swiftperch",
    "coordinates":"(34,31)",
    "Level":10
	},
  {
		"Type":"Fishing",
		"Class":"F",
    "Name":"Just Add Water",
    "NPC":"Swygskyf",
    "Zone":"Western La Noscea",
    "Region":"Swiftperch",
    "coordinates":"(34,31)",
    "Level":10
	},
  {
		"Type":"Fishing",
		"Class":"F",
    "Name":"The Fertile Incandescent",
    "NPC":"Swygskyf",
    "Zone":"Western La Noscea",
    "Region":"Swiftperch",
    "coordinates":"(34,31)",
    "Level":10
	},
  {
		"Type":"Fishing",
		"Class":"F",
    "Name":"Brain Candy",
    "NPC":"Swygskyf",
    "Zone":"Western La Noscea",
    "Region":"Swiftperch",
    "coordinates":"(34,31)",
    "Level":10
	},
  {
		"Type":"Fishing",
		"Class":"F",
    "Name":"The Deepest Cut",
    "NPC":"Orwen",
    "Zone":"Western La Noscea",
    "Region":"Aleport",
    "coordinates":"(27,27)",
    "Level":15
	},
  {
		"Type":"Fishing",
		"Class":"F",
    "Name":"The Moral of the Coral",
    "NPC":"Orwen",
    "Zone":"Western La Noscea",
    "Region":"Aleport",
    "coordinates":"(27,27)",
    "Level":15
	},
  {
		"Type":"Fishing",
		"Class":"F",
    "Name":"Crab Life by the Horns",
    "NPC":"Orwen",
    "Zone":"Western La Noscea",
    "Region":"Aleport",
    "coordinates":"(27,27)",
    "Level":15
	},
  {
		"Type":"Fishing",
		"Class":"F",
    "Name":"Shell Game (Fisher)",
    "NPC":"Orwen",
    "Zone":"Western La Noscea",
    "Region":"Aleport",
    "coordinates":"(27,27)",
    "Level":15
	},
  {
		"Type":"Fishing",
		"Class":"F",
    "Name":"Sounds Fishy to Me",
    "NPC":"Nyell",
    "Zone":"South Shroud",
    "Region":"Quarrymill",
    "coordinates":"(25,20)",
    "Level":20
	},
  {
		"Type":"Fishing",
		"Class":"F",
    "Name":"Blind Ambition",
    "NPC":"Nyell",
    "Zone":"South Shroud",
    "Region":"Quarrymill",
    "coordinates":"(25,20)",
    "Level":20
	},
  {
		"Type":"Fishing",
		"Class":"F",
    "Name":"The Long and the Shortcrust",
    "NPC":"Nyell",
    "Zone":"South Shroud",
    "Region":"Quarrymill",
    "coordinates":"(25,20)",
    "Level":20
	},
  {
		"Type":"Fishing",
		"Class":"F",
    "Name":"Food Chain Reaction",
    "NPC":"Nyell",
    "Zone":"South Shroud",
    "Region":"Quarrymill",
    "coordinates":"(25,20)",
    "Level":20
	},
  {
		"Type":"Fishing",
		"Class":"F",
    "Name":"Fishing 101",
    "NPC":"Nyell",
    "Zone":"South Shroud",
    "Region":"Quarrymill",
    "coordinates":"(25,20)",
    "Level":25
	},
  {
		"Type":"Fishing",
		"Class":"F",
    "Name":"A Shocking Soiree",
    "NPC":"Nyell",
    "Zone":"South Shroud",
    "Region":"Quarrymill",
    "coordinates":"(25,20)",
    "Level":25
	},
  {
		"Type":"Fishing",
		"Class":"F",
    "Name":"A Watery Web of Lies",
    "NPC":"Nyell",
    "Zone":"South Shroud",
    "Region":"Quarrymill",
    "coordinates":"(25,20)",
    "Level":25
	},
  {
		"Type":"Fishing",
		"Class":"F",
    "Name":"The Truth Will Set You Free",
    "NPC":"Nyell",
    "Zone":"South Shroud",
    "Region":"Quarrymill",
    "coordinates":"(25,20)",
    "Level":25
	},
  {
		"Type":"Fishing",
		"Class":"F",
    "Name":"The Blue Period",
    "NPC":"Nahctahr",
    "Zone":"Eastern La Noscea",
    "Region":"Costa del Sol",
    "coordinates":"(30,30)",
    "Level":30
	},
  {
		"Type":"Fishing",
		"Class":"F",
    "Name":"Kitchen Nightmares No More",
    "NPC":"Nahctahr",
    "Zone":"Eastern La Noscea",
    "Region":"Costa del Sol",
    "coordinates":"(30,30)",
    "Level":30
	},
  {
		"Type":"Fishing",
		"Class":"F",
    "Name":"A Recipe for Disaster",
    "NPC":"Nahctahr",
    "Zone":"Eastern La Noscea",
    "Region":"Costa del Sol",
    "coordinates":"(30,30)",
    "Level":30
	},
  {
		"Type":"Fishing",
		"Class":"F",
    "Name":"Just Call Me Late for Dinner",
    "NPC":"Nahctahr",
    "Zone":"Eastern La Noscea",
    "Region":"Costa del Sol",
    "coordinates":"(30,30)",
    "Level":30
	},
  {
		"Type":"Fishing",
		"Class":"F",
    "Name":"Fry Me a River",
    "NPC":"Cimeaurant",
    "Zone":"Coerthas Central Highlands",
    "Region":"First Dicasterial Observatorium of Aetherial and Astrological Phenomena",
    "coordinates":"(26,28)",
    "Level":35
	},
  {
		"Type":"Fishing",
		"Class":"F",
    "Name":"The Perks of Politics",
    "NPC":"Cimeaurant",
    "Zone":"Coerthas Central Highlands",
    "Region":"First Dicasterial Observatorium of Aetherial and Astrological Phenomena",
    "coordinates":"(26,28)",
    "Level":35
	},
  {
		"Type":"Fishing",
		"Class":"F",
    "Name":"Gathering Light",
    "NPC":"Cimeaurant",
    "Zone":"Coerthas Central Highlands",
    "Region":"First Dicasterial Observatorium of Aetherial and Astrological Phenomena",
    "coordinates":"(26,28)",
    "Level":35
	},
  {
		"Type":"Fishing",
		"Class":"F",
    "Name":"Hands Off Our Fish",
    "NPC":"Cimeaurant",
    "Zone":"Coerthas Central Highlands",
    "Region":"First Dicasterial Observatorium of Aetherial and Astrological Phenomena",
    "coordinates":"(26,28)",
    "Level":35
	},
  {
		"Type":"Fishing",
		"Class":"F",
    "Name":"Empire Builder",
    "NPC":"Voilinaut",
    "Zone":"Coerthas Central Highlands",
    "Region":"Whitebrim Front",
    "coordinates":"(12,16)",
    "Level":40
	},
  {
		"Type":"Fishing",
		"Class":"F",
    "Name":"Laird of the Lakes",
    "NPC":"Voilinaut",
    "Zone":"Coerthas Central Highlands",
    "Region":"Whitebrim Front",
    "coordinates":"(12,16)",
    "Level":40
	},
  {
		"Type":"Fishing",
		"Class":"F",
    "Name":"Make a Fish",
    "NPC":"Voilinaut",
    "Zone":"Coerthas Central Highlands",
    "Region":"Whitebrim Front",
    "coordinates":"(12,16)",
    "Level":40
	},
  {
		"Type":"Fishing",
		"Class":"F",
    "Name":"Rationally Speaking",
    "NPC":"Voilinaut",
    "Zone":"Coerthas Central Highlands",
    "Region":"Whitebrim Front",
    "coordinates":"(12,16)",
    "Level":40
	},
  {
		"Type":"Fishing",
		"Class":"F",
    "Name":"Snail Fail",
    "NPC":"K'leytai",
    "Zone":"Mor Dhona",
    "Region":"Saint Coinach's Find",
    "coordinates":"(29,12)",
    "Level":45
	},
  {
		"Type":"Fishing",
		"Class":"F",
    "Name":"Awash in Evidence",
    "NPC":"K'leytai",
    "Zone":"Mor Dhona",
    "Region":"Saint Coinach's Find",
    "coordinates":"(29,12)",
    "Level":45
	},
  {
		"Type":"Fishing",
		"Class":"F",
    "Name":"Sleeper Creeper",
    "NPC":"K'leytai",
    "Zone":"Mor Dhona",
    "Region":"Saint Coinach's Find",
    "coordinates":"(29,12)",
    "Level":45
	},
  {
		"Type":"Fishing",
		"Class":"F",
    "Name":"Putting the Zap on Nature",
    "NPC":"K'leytai",
    "Zone":"Mor Dhona","Region":"Saint Coinach's Find",
    "coordinates":"(29,12)",
    "Level":45
  }

]
